[
    {
      "name": "Mangalore Central",
      "latitude": 12.870269,
      "longitude": 74.842448
    },
    {
      "name": "Bejai",
      "latitude": 12.895730,
      "longitude": 74.851451
    },
    {
      "name": "Kadri",
      "latitude": 12.891584,
      "longitude": 74.860007
    },
    {
      "name": "Bendoor",
      "latitude": 12.890847,
      "longitude": 74.851231
    },
    {
      "name": "Kottara",
      "latitude": 12.923043,
      "longitude": 74.829800
    },
    {
      "name": "Urwa",
      "latitude": 12.908649,
      "longitude": 74.839207
    },
    {
      "name": "Surathkal",
      "latitude": 13.035791,
      "longitude": 74.802034
    },
    {
      "name": "Pandeshwar",
      "latitude": 12.860679,
      "longitude": 74.835682
    },
    {
      "name": "Jeppinamogaru",
      "latitude": 12.826811,
      "longitude": 74.859221
    },
    {
      "name": "Pumpwell",
      "latitude": 12.855620,
      "longitude": 74.851217
    },
    {
      "name": "Deralakatte",
      "latitude": 12.787663,
      "longitude": 74.900514
    },
    {
      "name": "Mulki",
      "latitude": 13.091471,
      "longitude": 74.792838
    },
    {
      "name": "Moodbidri",
      "latitude": 13.066798,
      "longitude": 74.993724
    },
    {
      "name": "Kinnigoli",
      "latitude": 13.082448,
      "longitude": 74.844157
    },
    {
      "name": "Thokkottu",
      "latitude": 12.805092,
      "longitude": 74.867931
    },
    {
      "name": "Bondel",
      "latitude": 12.915965,
      "longitude": 74.843209
    },
    {
      "name": "Kodialbail",
      "latitude": 12.874409,
      "longitude": 74.842963
    },
    {
      "name": "Attavar",
      "latitude": 12.860365,
      "longitude": 74.842298
    },
    {
      "name": "Kankanady",
      "latitude": 12.866425,
      "longitude": 74.851630
    },
    {
      "name": "Falnir",
      "latitude": 12.865572,
      "longitude": 74.847346
    },
    {
      "name": "Kulashekara",
      "latitude": 12.917324,
      "longitude": 74.858423
    },
    {
      "name": "Nanthoor",
      "latitude": 12.896933,
      "longitude": 74.860823
    },
    {
      "name": "Shakthinagar",
      "latitude": 12.895358,
      "longitude": 74.862675
    },
    {
      "name": "Yeyyadi",
      "latitude": 12.917735,
      "longitude": 74.834364
    },
    {
      "name": "Maryhill",
      "latitude": 12.926073,
      "longitude": 74.831624
    },
    {
      "name": "Kavoor",
      "latitude": 12.935626,
      "longitude": 74.826642
    },
    {
      "name": "Valencia",
      "latitude": 12.866692,
      "longitude": 74.854203
    },
    {
      "name": "Jeppu",
      "latitude": 12.857617,
      "longitude": 74.837242
    },
    {
      "name": "Capitanio",
      "latitude": 12.866258,
      "longitude": 74.860829
    }
  ]
  